[{"id":78652,"name":"Aylesbury Station Way","key":"L-YRYCJI","type":"LEAF","parent":{"id":77908},"area":2965.93,"summer_temp":15.5,"winter_temp":15.5,"activity":"DEPARTMENT-STORE-FOOD","reference_devices":[{"device":{"id":437878},"type":"OUTDOORTEMP"},{"device":{"id":433128},"type":"MAINSUPPLY"},{"device":{"id":424917},"type":"GAS"}],"address":{"street":"Station Way","zip":"HP20 2HX","city":"HP20 2HX","country":{"name":"United Kingdom","code":"GB"},"coordinates":{"latitude":51.81439,"longitude":-0.816628}},"optimisedDate":"2018-09-28"},{"id":78653,"name":"Ayr Castlehill Rd","key":"L-M3JWHH","type":"LEAF","parent":{"id":78001},"area":2475.22,"summer_temp":15.5,"winter_temp":15.5,"activity":"DEPARTMENT-STORE-FOOD","reference_devices":[{"device":{"id":424962},"type":"GAS"},{"device":{"id":433497},"type":"MAINSUPPLY"},{"device":{"id":433848},"type":"OUTDOORTEMP"}],"address":{"street":"Castlehill Road","zip":"KA7 2JB","city":"Ayr","country":{"name":"United Kingdom","code":"GB"},"coordinates":{"latitude":55.45249,"longitude":-4.622056}},"optimisedDate":"2018-10-10"},{"id":78657,"name":"Banbury Swan Close","key":"L-VH9JDM","type":"LEAF","parent":{"id":78000},"area":3150.34,"summer_temp":15.5,"winter_temp":15.5,"activity":"DEPARTMENT-STORE-FOOD","reference_devices":[{"device":{"id":433328},"type":"MAINSUPPLY"},{"device":{"id":434111},"type":"OUTDOORTEMP"},{"device":{"id":424967},"type":"GAS"}],"address":{"street":"Swan Close Road","zip":"OX16","city":"Banbury","country":{"name":"United Kingdom","code":"GB"},"coordinates":{"latitude":52.057556,"longitude":-1.331441}},"optimisedDate":"2018-09-21"},{"id":78659,"name":"Bangor Holyhead Rd","key":"L-LSCT7C","type":"LEAF","parent":{"id":78000},"area":1999,"summer_temp":15.5,"winter_temp":15.5,"activity":"DEPARTMENT-STORE-FOOD","reference_devices":[{"device":{"id":424928},"type":"GAS"},{"device":{"id":433263},"type":"MAINSUPPLY"},{"device":{"id":434112},"type":"OUTDOORTEMP"}],"address":{"street":"Holyhead Road","zip":"LL57 2EE","city":"Bangor","country":{"name":"United Kingdom","code":"GB"},"coordinates":{"latitude":53.22562,"longitude":-4.135065}},"optimisedDate":"2018-10-11"},{"id":78666,"name":"Barry Heol Ceiniog","key":"L-IFMIZS","type":"LEAF","parent":{"id":77903},"area":3349.34,"summer_temp":15.5,"winter_temp":15.5,"activity":"DEPARTMENT-STORE-FOOD","reference_devices":[{"device":{"id":433621},"type":"MAINSUPPLY"},{"device":{"id":434117},"type":"OUTDOORTEMP"},{"device":{"id":424979},"type":"GAS"}],"address":{"street":"Heol Ceiniog","zip":"CF63 4BA","city":"Barry","country":{"name":"United Kingdom","code":"GB"},"coordinates":{"latitude":51.401627,"longitude":-3.270886}},"optimisedDate":"2018-10-06"},{"id":78668,"name":"Bath London Rd","key":"L-OMWKGH","type":"LEAF","parent":{"id":77903},"area":1911.2,"summer_temp":15.5,"winter_temp":15.5,"activity":"DEPARTMENT-STORE-FOOD","reference_devices":[{"device":{"id":425403},"type":"GAS"},{"device":{"id":433663},"type":"MAINSUPPLY"},{"device":{"id":434119},"type":"OUTDOORTEMP"}],"address":{"street":"London Road","zip":"BA1 6AE","city":"Bath","country":{"name":"United Kingdom","code":"GB"},"coordinates":{"latitude":51.39184,"longitude":-2.352605}},"optimisedDate":"2018-09-28"},{"id":78671,"name":"Becontree Heath","key":"L-NFN5MZ","type":"LEAF","parent":{"id":77908},"area":2116.05,"summer_temp":15.5,"winter_temp":15.5,"activity":"DEPARTMENT-STORE-FOOD","reference_devices":[{"device":{"id":425393},"type":"GAS"},{"device":{"id":433122},"type":"MAINSUPPLY"}],"address":{"street":"Wood Lane, 481","zip":"RM8 3NT","city":"Dagenham","country":{"name":"United Kingdom","code":"GB"},"coordinates":{"latitude":51.559444,"longitude":0.148373}},"optimisedDate":"2018-08-16"},{"id":78673,"name":"Bedlington","key":"L-DDMY1I","type":"LEAF","parent":{"id":78001},"area":719.16,"summer_temp":15.5,"winter_temp":15.5,"activity":"DEPARTMENT-STORE-FOOD","reference_devices":[{"device":{"id":433368},"type":"MAINSUPPLY"},{"device":{"id":434124},"type":"OUTDOORTEMP"},{"device":{"id":424969},"type":"GAS"}],"address":{"street":"Choppington Road","zip":"NE22 6LA","city":"Bedlington","country":{"name":"United Kingdom","code":"GB"},"coordinates":{"latitude":55.136177,"longitude":-1.59925}},"optimisedDate":"2018-09-30"},{"id":78676,"name":"Berwick UT North Rd","key":"L-EJKKWI","type":"LEAF","parent":{"id":78001},"area":3207.01,"summer_temp":15.5,"winter_temp":15.5,"activity":"DEPARTMENT-STORE-FOOD","reference_devices":[{"device":{"id":434131},"type":"OUTDOORTEMP"},{"device":{"id":433512},"type":"MAINSUPPLY"},{"device":{"id":424912},"type":"GAS"}],"address":{"street":"North Road","zip":"TD15 1UQ","city":"Berwick Upon Tweed","country":{"name":"United Kingdom","code":"GB"},"coordinates":{"latitude":55.784225,"longitude":-2.014945}},"optimisedDate":"2018-09-24"},{"id":78678,"name":"Bideford Kingsley Rd","key":"L-XJF1JA","type":"LEAF","parent":{"id":77903},"area":3304,"summer_temp":15.5,"winter_temp":15.5,"activity":"DEPARTMENT-STORE-FOOD","reference_devices":[{"device":{"id":433659},"type":"MAINSUPPLY"},{"device":{"id":434132},"type":"OUTDOORTEMP"},{"device":{"id":424972},"type":"GAS"}],"address":{"street":"Kingsley Road","zip":"EX39 2LG","city":"Bideford","country":{"name":"United Kingdom","code":"GB"},"coordinates":{"latitude":51.022484,"longitude":-4.208262}},"optimisedDate":"2018-10-12"},{"id":77827,"name":"Blandford Forum West Street","key":"L-NXEE0K","type":"LEAF","parent":{"id":77903},"area":1265.2,"summer_temp":15.5,"winter_temp":15.5,"activity":"DEPARTMENT-STORE-FOOD","reference_devices":[{"device":{"id":424939},"type":"GAS"},{"device":{"id":423434},"type":"OUTDOORTEMP"},{"device":{"id":423158},"type":"MAINSUPPLY"}],"address":{"street":"West Street","zip":"DT11 7AW","city":"Blandford","country":{"name":"United Kingdom","code":"GB"},"coordinates":{"latitude":50.85417,"longitude":-2.166842}},"optimisedDate":"2018-09-11"},{"id":78687,"name":"Bodmin Priory Rd","key":"L-NZPWLS","type":"LEAF","parent":{"id":77903},"area":2115.22,"summer_temp":15.5,"winter_temp":15.5,"activity":"DEPARTMENT-STORE-FOOD","reference_devices":[{"device":{"id":433650},"type":"MAINSUPPLY"},{"device":{"id":434144},"type":"OUTDOORTEMP"},{"device":{"id":424956},"type":"GAS"}],"address":{"street":"Priory Road","zip":"PL31 2AF","city":"Bodmin","country":{"name":"United Kingdom","code":"GB"},"coordinates":{"latitude":50.4695,"longitude":-4.712749}},"optimisedDate":"2018-10-14"},{"id":77828,"name":"Bognor Regis Bedford St","key":"L-OFL1BW","type":"LEAF","parent":{"id":77903},"area":1712.6,"summer_temp":15.5,"winter_temp":15.5,"activity":"DEPARTMENT-STORE-FOOD","reference_devices":[{"device":{"id":423154},"type":"MAINSUPPLY"},{"device":{"id":423433},"type":"OUTDOORTEMP"},{"device":{"id":424926},"type":"GAS"}],"address":{"street":"Bedford Street, 38","zip":"PO21 1RP","city":"Bedford","country":{"name":"United Kingdom","code":"GB"},"coordinates":{"latitude":50.785145,"longitude":-0.675371}},"optimisedDate":"2018-09-13"},{"id":78708,"name":"Bracknell The Peel Centre","key":"L-XYJHE5","type":"LEAF","parent":{"id":77908},"area":2110.57,"summer_temp":15.5,"winter_temp":15.5,"activity":"DEPARTMENT-STORE-FOOD","reference_devices":[{"device":{"id":433584},"type":"MAINSUPPLY"},{"device":{"id":424924},"type":"GAS"},{"device":{"id":434151},"type":"OUTDOORTEMP"}],"address":{"street":"Skimped Hill Lane","zip":"RG12 1EG","city":"Bracknell","country":{"name":"United Kingdom","code":"GB"},"coordinates":{"latitude":51.41444,"longitude":-0.756504}},"optimisedDate":"2018-09-25"},{"id":78721,"name":"Bromsgrove Buntsford Ind Pk","key":"L-GI5K9G","type":"LEAF","parent":{"id":78000},"area":2845.71,"summer_temp":15.5,"winter_temp":15.5,"activity":"DEPARTMENT-STORE-FOOD","reference_devices":[{"device":{"id":424949},"type":"GAS"},{"device":{"id":426452},"type":"MAINSUPPLY"},{"device":{"id":434161},"type":"OUTDOORTEMP"}],"address":{"street":"Buntsford Park Road","zip":"B60 3DX","city":"Bromsgrove","country":{"name":"United Kingdom","code":"GB"},"coordinates":{"latitude":52.314728,"longitude":-2.063723}},"optimisedDate":"2018-07-24"},{"id":78723,"name":"Bude Stucley Road","key":"L-KJAYBA","type":"LEAF","parent":{"id":77903},"area":2238.6,"summer_temp":15.5,"winter_temp":15.5,"activity":"DEPARTMENT-STORE-FOOD","reference_devices":[{"device":{"id":425397},"type":"GAS"},{"device":{"id":433654},"type":"MAINSUPPLY"},{"device":{"id":434163},"type":"OUTDOORTEMP"}],"address":{"street":"Stucley Road","zip":"EX23 8UA","city":"Bude","country":{"name":"United Kingdom","code":"GB"},"coordinates":{"latitude":50.82791,"longitude":-4.52866}},"optimisedDate":"2018-10-12"},{"id":78724,"name":"Burntwood High St","key":"L-9JH70W","type":"LEAF","parent":{"id":78000},"area":2904.99,"summer_temp":15.5,"winter_temp":15.5,"activity":"DEPARTMENT-STORE-FOOD","reference_devices":[{"device":{"id":424968},"type":"GAS"},{"device":{"id":434165},"type":"OUTDOORTEMP"},{"device":{"id":433312},"type":"MAINSUPPLY"}],"address":{"street":"High Street","zip":"WS7 3XE","city":"Burntwood","country":{"name":"United Kingdom","code":"GB"},"coordinates":{"latitude":52.67143,"longitude":-1.934102}},"optimisedDate":"2018-10-02"},{"id":78727,"name":"Caernarfon North Rd","key":"L-F7LVPK","type":"LEAF","parent":{"id":78000},"area":1755.4,"summer_temp":15.5,"winter_temp":15.5,"activity":"DEPARTMENT-STORE-FOOD","reference_devices":[{"device":{"id":424957},"type":"GAS"},{"device":{"id":433264},"type":"MAINSUPPLY"},{"device":{"id":434172},"type":"OUTDOORTEMP"}],"address":{"street":"Ffordd Y Gogledd","zip":"LL55 1BA","city":"Caernarfon","country":{"name":"United Kingdom","code":"GB"},"coordinates":{"latitude":53.144985,"longitude":-4.270715}},"optimisedDate":"2018-10-04"},{"id":77831,"name":"Camberwell Green","key":"L-UWNGXY","type":"LEAF","parent":{"id":77908},"area":1155.62,"summer_temp":15.5,"winter_temp":15.5,"activity":"DEPARTMENT-STORE-FOOD","reference_devices":[{"device":{"id":423429},"type":"OUTDOORTEMP"},{"device":{"id":425097},"type":"GAS"},{"device":{"id":423120},"type":"MAINSUPPLY"}],"address":{"street":"Butterfly Walk, 17","zip":"SE5 8RW","city":"Camberwell Green","country":{"name":"United Kingdom","code":"GB"},"coordinates":{"latitude":51.473133,"longitude":-0.092963}},"optimisedDate":"2018-08-10"},{"id":77832,"name":"Canterbury Ten Perch Rd","key":"L-TC5HWI","type":"LEAF","parent":{"id":77903},"area":2956.64,"summer_temp":15.5,"winter_temp":15.5,"activity":"DEPARTMENT-STORE-FOOD","reference_devices":[{"device":{"id":423137},"type":"MAINSUPPLY"},{"device":{"id":423428},"type":"OUTDOORTEMP"},{"device":{"id":424963},"type":"GAS"}],"address":{"street":"Ten Perch Road","zip":"CT1 3TQ","city":"Canterbury","country":{"name":"United Kingdom","code":"GB"},"coordinates":{"latitude":51.270622,"longitude":1.062312}},"optimisedDate":"2018-08-01"},{"id":78732,"name":"Canvey Island Northwick Rd","key":"L-33T2BS","type":"LEAF","parent":{"id":77903},"area":3356.4,"summer_temp":15.5,"winter_temp":15.5,"activity":"DEPARTMENT-STORE-FOOD","reference_devices":[{"device":{"id":434176},"type":"OUTDOORTEMP"},{"device":{"id":433144},"type":"MAINSUPPLY"}],"address":{"street":"Northwick Road","zip":"SS8 0PT","city":"Canvey Island","country":{"name":"United Kingdom","code":"GB"},"coordinates":{"latitude":51.52459,"longitude":0.549467}},"optimisedDate":"2018-09-29"},{"id":78733,"name":"Cardiff Bay","key":"L-B2CHVZ","type":"LEAF","parent":{"id":77903},"area":3418,"summer_temp":15.5,"winter_temp":15.5,"activity":"DEPARTMENT-STORE-FOOD","reference_devices":[{"device":{"id":434177},"type":"OUTDOORTEMP"},{"device":{"id":424951},"type":"GAS"},{"device":{"id":433600},"type":"MAINSUPPLY"}],"address":{"street":"International Sports Village","zip":"CF11 0JP","city":"Cardiff ","country":{"name":"United Kingdom","code":"GB"},"coordinates":{"latitude":51.45169,"longitude":-3.182977}},"optimisedDate":"2018-10-05"},{"id":78739,"name":"Castle Bromwich Hurst Lane","key":"L-M7591C","type":"LEAF","parent":{"id":78000},"area":2709.5,"summer_temp":15.5,"winter_temp":15.5,"activity":"DEPARTMENT-STORE-FOOD","reference_devices":[{"device":{"id":424936},"type":"GAS"},{"device":{"id":433309},"type":"MAINSUPPLY"},{"device":{"id":434180},"type":"OUTDOORTEMP"}],"address":{"street":"Chester Road, 264","zip":"B36 0LB","city":"Castle Bromwich, Birmingham","country":{"name":"United Kingdom","code":"GB"},"coordinates":{"latitude":52.500256,"longitude":-1.762841}},"optimisedDate":"2018-09-19"},{"id":77833,"name":"Caterham Church Walk","key":"L-YU2QSQ","type":"LEAF","parent":{"id":77903},"area":1987.29,"summer_temp":15.5,"winter_temp":15.5,"activity":"DEPARTMENT-STORE-FOOD","reference_devices":[{"device":{"id":423134},"type":"MAINSUPPLY"},{"device":{"id":425391},"type":"GAS"},{"device":{"id":423427},"type":"OUTDOORTEMP"}],"address":{"street":"Church Walk, 28","zip":"CR3 6RT","city":"Caterham","country":{"name":"United Kingdom","code":"GB"},"coordinates":{"latitude":51.28174,"longitude":-0.077007}},"optimisedDate":"2018-08-30"},{"id":78741,"name":"Chapel en le Frith Market St","key":"L-MHOJGC","type":"LEAF","parent":{"id":78001},"area":1473.72,"summer_temp":15.5,"winter_temp":15.5,"activity":"DEPARTMENT-STORE-FOOD","reference_devices":[{"device":{"id":424973},"type":"GAS"},{"device":{"id":434190},"type":"OUTDOORTEMP"},{"device":{"id":433429},"type":"MAINSUPPLY"}],"address":{"street":"Market Street","zip":"SK23 0HZ","city":"Chapel-en-le-Frith","country":{"name":"United Kingdom","code":"GB"},"coordinates":{"latitude":53.32467,"longitude":-1.909938}},"optimisedDate":"2018-09-07"},{"id":77834,"name":"Chatham Princes Avenue","key":"L-OUQITB","type":"LEAF","parent":{"id":77903},"area":1913.99,"summer_temp":15.5,"winter_temp":15.5,"activity":"DEPARTMENT-STORE-FOOD","reference_devices":[{"device":{"id":423426},"type":"OUTDOORTEMP"},{"device":{"id":423141},"type":"MAINSUPPLY"},{"device":{"id":424921},"type":"GAS"}],"address":{"street":"Princes Avenue","zip":"ME5 8BA","city":"Chatham","country":{"name":"United Kingdom","code":"GB"},"coordinates":{"latitude":51.342518,"longitude":0.525878}},"optimisedDate":"2018-08-17"},{"id":78744,"name":"Cheltenham Up Hatherley","key":"L-W57SNB","type":"LEAF","parent":{"id":77903},"area":3022.23,"summer_temp":15.5,"winter_temp":15.5,"activity":"DEPARTMENT-STORE-FOOD","reference_devices":[{"device":{"id":433331},"type":"MAINSUPPLY"},{"device":{"id":434644},"type":"OUTDOORTEMP"},{"device":{"id":424927},"type":"GAS"}],"address":{"street":"Up Hatherley","zip":"GL51 3BW","city":"Cheltenham","country":{"name":"United Kingdom","code":"GB"},"coordinates":{"latitude":51.880566,"longitude":-2.107878}},"optimisedDate":"2018-10-08"},{"id":78752,"name":"Clacton Centenary Way","key":"L-FB6RMM","type":"LEAF","parent":{"id":78000},"area":2226.61,"summer_temp":15.5,"winter_temp":15.5,"activity":"DEPARTMENT-STORE-FOOD","reference_devices":[{"device":{"id":425118},"type":"GAS"},{"device":{"id":434384},"type":"OUTDOORTEMP"},{"device":{"id":433126},"type":"MAINSUPPLY"}],"address":{"street":"Centenary Way, 2","zip":"CO16 9SB","city":"Little Clacton","country":{"name":"United Kingdom","code":"GB"},"coordinates":{"latitude":51.818962,"longitude":1.149843}},"optimisedDate":"2018-09-12"},{"id":78753,"name":"Clacton Waterglade","key":"L-CJ4ZIA","type":"LEAF","parent":{"id":78000},"area":2170.96,"summer_temp":15.5,"winter_temp":15.5,"activity":"DEPARTMENT-STORE-FOOD","reference_devices":[{"device":{"id":424929},"type":"GAS"},{"device":{"id":433156},"type":"MAINSUPPLY"},{"device":{"id":434203},"type":"OUTDOORTEMP"}],"address":{"street":"Old Road","zip":"CO15 1HX","city":"Clacton-on-Sea","country":{"name":"United Kingdom","code":"GB"},"coordinates":{"latitude":51.79,"longitude":1.148172}},"optimisedDate":"2018-08-15"},{"id":78762,"name":"Coalville Whitwick Road","key":"L-H23BSP","type":"LEAF","parent":{"id":78000},"area":3652.1,"summer_temp":15.5,"winter_temp":15.5,"activity":"DEPARTMENT-STORE-FOOD","reference_devices":[{"device":{"id":434207},"type":"OUTDOORTEMP"},{"device":{"id":433189},"type":"MAINSUPPLY"},{"device":{"id":424943},"type":"GAS"}],"address":{"street":"Whitwick Road","zip":"LE67 3JN","city":"Coalville","country":{"name":"United Kingdom","code":"GB"},"coordinates":{"latitude":52.729485,"longitude":-1.366983}},"optimisedDate":"2018-10-02"},{"id":78768,"name":"Corby Snatch Hill","key":"L-AMQUBK","type":"LEAF","parent":{"id":78000},"area":2328,"summer_temp":15.5,"winter_temp":15.5,"activity":"DEPARTMENT-STORE-FOOD","reference_devices":[{"device":{"id":434214},"type":"OUTDOORTEMP"},{"device":{"id":433201},"type":"MAINSUPPLY"},{"device":{"id":425023},"type":"GAS"}],"address":{"street":"Oakley Road","zip":"NN18 8LH","city":"Corby","country":{"name":"United Kingdom","code":"GB"},"coordinates":{"latitude":52.472107,"longitude":-0.720417}},"optimisedDate":"2018-09-23"},{"id":78769,"name":"Corringham","key":"L-DBA9VA","type":"LEAF","parent":{"id":77903},"area":1106.94,"summer_temp":15.5,"winter_temp":15.5,"activity":"DEPARTMENT-STORE-FOOD","reference_devices":[{"device":{"id":425001},"type":"GAS"},{"device":{"id":433108},"type":"MAINSUPPLY"},{"device":{"id":434216},"type":"OUTDOORTEMP"}],"address":{"street":"Saint John's Way","zip":"SS17 7NA","city":"Corringham","country":{"name":"United Kingdom","code":"GB"},"coordinates":{"latitude":51.52494,"longitude":0.448279}},"optimisedDate":"2018-08-16"},{"id":78776,"name":"Cromer Holt Rd","key":"L-EVQT5M","type":"LEAF","parent":{"id":78000},"area":2287.18,"summer_temp":15.5,"winter_temp":15.5,"activity":"DEPARTMENT-STORE-FOOD","reference_devices":[],"address":{"street":"Beech Station Road","zip":"NR27 9SW","city":"Cromer","country":{"name":"United Kingdom","code":"GB"},"coordinates":{"latitude":52.930447,"longitude":1.292019}},"optimisedDate":"2018-10-02"},{"id":78787,"name":"Devizes Estcourt St","key":"L-RUJB7M","type":"LEAF","parent":{"id":77903},"area":1964.99,"summer_temp":15.5,"winter_temp":15.5,"activity":"DEPARTMENT-STORE-FOOD","reference_devices":[{"device":{"id":434239},"type":"OUTDOORTEMP"},{"device":{"id":433586},"type":"MAINSUPPLY"},{"device":{"id":425011},"type":"GAS"}],"address":{"street":"Estcourt Street","zip":"SN10 1LQ","city":"Devizes","country":{"name":"United Kingdom","code":"GB"},"coordinates":{"latitude":51.352238,"longitude":-1.988688}},"optimisedDate":"2018-09-20"},{"id":78788,"name":"Diss Victoria Rd","key":"L-ANWHUU","type":"LEAF","parent":{"id":78000},"area":3608.17,"summer_temp":15.5,"winter_temp":15.5,"activity":"DEPARTMENT-STORE-FOOD","reference_devices":[{"device":{"id":433157},"type":"MAINSUPPLY"},{"device":{"id":434237},"type":"OUTDOORTEMP"},{"device":{"id":425021},"type":"GAS"}],"address":{"street":"Victoria Road","zip":"IP22 4JG","city":"Diss","country":{"name":"United Kingdom","code":"GB"},"coordinates":{"latitude":52.371956,"longitude":1.11613}},"optimisedDate":"2018-09-11"},{"id":77836,"name":"Dover","key":"L-DP2I7U","type":"LEAF","parent":{"id":77903},"area":2251.51,"summer_temp":15.5,"winter_temp":15.5,"activity":"DEPARTMENT-STORE-FOOD","reference_devices":[{"device":{"id":423419},"type":"OUTDOORTEMP"},{"device":{"id":425036},"type":"GAS"},{"device":{"id":423148},"type":"MAINSUPPLY"}],"address":{"street":"Bridge Street","zip":"CT16 2LB","city":"Kent","country":{"name":"United Kingdom","code":"GB"},"coordinates":{"latitude":51.13162,"longitude":1.30575}},"optimisedDate":"2018-09-13"},{"id":78758,"name":"Downham Market","key":"L-67EV75","type":"LEAF","parent":{"id":78000},"area":1155.2,"summer_temp":15.5,"winter_temp":15.5,"activity":"DEPARTMENT-STORE-FOOD","reference_devices":[{"device":{"id":426455},"type":"MAINSUPPLY"},{"device":{"id":425077},"type":"GAS"},{"device":{"id":434251},"type":"OUTDOORTEMP"}],"address":{"street":"Bridge Street","zip":"PE38 9DW","city":"Downham Market","country":{"name":"United Kingdom","code":"GB"},"coordinates":{"latitude":52.602917,"longitude":0.374252}},"optimisedDate":"2018-08-08"},{"id":77907,"name":"Edgbaston","key":"L-RZAA1W","type":"LEAF","parent":{"id":78000},"area":2347.85,"summer_temp":15.5,"winter_temp":15.5,"activity":"DEPARTMENT-STORE-FOOD","reference_devices":[{"device":{"id":418412},"type":"OUTDOORTEMP"},{"device":{"id":424674},"type":"MAINSUPPLY"},{"device":{"id":425385},"type":"GAS"}],"address":{"street":"Hagley Road, 30","zip":"B16 8PE","city":"Edgbaston, Birmingham","country":{"name":"United Kingdom","code":"GB"},"coordinates":{"latitude":52.471794,"longitude":-1.921141}},"optimisedDate":"2018-05-31"},{"id":78803,"name":"Edinburgh Hunters Tryst","key":"L-D3441H","type":"LEAF","parent":{"id":78001},"area":2306.23,"summer_temp":15.5,"winter_temp":15.5,"activity":"DEPARTMENT-STORE-FOOD","reference_devices":[{"device":{"id":425010},"type":"GAS"},{"device":{"id":434345},"type":"OUTDOORTEMP"},{"device":{"id":433513},"type":"MAINSUPPLY"}],"address":{"street":"New Swanston, 30","zip":"EH10 7HA","city":"Edinburgh","country":{"name":"United Kingdom","code":"GB"},"coordinates":{"latitude":55.90162,"longitude":-3.222201}},"optimisedDate":"2018-09-28"},{"id":78804,"name":"Edinburgh Moredun","key":"L-O8ZU58","type":"LEAF","parent":{"id":78001},"area":2309.66,"summer_temp":15.5,"winter_temp":15.5,"activity":"DEPARTMENT-STORE-FOOD","reference_devices":[{"device":{"id":434414},"type":"OUTDOORTEMP"},{"device":{"id":425045},"type":"GAS"},{"device":{"id":433538},"type":"MAINSUPPLY"}],"address":{"street":"Gilmerton Road","zip":"EH17 7JH","city":"Moredun","country":{"name":"United Kingdom","code":"GB"},"coordinates":{"latitude":55.911327,"longitude":-3.141979}},"optimisedDate":"2018-09-26"},{"id":78805,"name":"Edinburgh Portobello Rd","key":"L-XFYJCE","type":"LEAF","parent":{"id":78001},"area":2745.2,"summer_temp":15.5,"winter_temp":15.5,"activity":"DEPARTMENT-STORE-FOOD","reference_devices":[{"device":{"id":433515},"type":"MAINSUPPLY"},{"device":{"id":425399},"type":"GAS"}],"address":{"street":"Portobello Road","zip":"EH8","city":"Edinburgh","country":{"name":"United Kingdom","code":"GB"},"coordinates":{"latitude":55.95518,"longitude":-3.143892}},"optimisedDate":"2018-09-25"},{"id":78810,"name":"Evesham Four Pool Estate","key":"L-SEN4RX","type":"LEAF","parent":{"id":78000},"area":2565.7,"summer_temp":15.5,"winter_temp":15.5,"activity":"DEPARTMENT-STORE-FOOD","reference_devices":[{"device":{"id":434273},"type":"OUTDOORTEMP"},{"device":{"id":425014},"type":"GAS"},{"device":{"id":433299},"type":"MAINSUPPLY"}],"address":{"street":"Davies Road","zip":"WR11 1FN","city":"Evesham","country":{"name":"United Kingdom","code":"GB"},"coordinates":{"latitude":52.07982,"longitude":-1.945824}},"optimisedDate":"2018-09-20"},{"id":78813,"name":"Fakenham Clipbush Lane","key":"L-ZG2IJY","type":"LEAF","parent":{"id":78000},"area":2395.32,"summer_temp":15.5,"winter_temp":15.5,"activity":"DEPARTMENT-STORE-FOOD","reference_devices":[{"device":{"id":425038},"type":"GAS"},{"device":{"id":433129},"type":"MAINSUPPLY"}],"address":{"street":"Clipbush Lane","zip":"NR21 8SW","city":"Fakenham","country":{"name":"United Kingdom","code":"GB"},"coordinates":{"latitude":52.838413,"longitude":0.8712}},"optimisedDate":"2018-08-20"},{"id":77837,"name":"Faversham","key":"L-DS6XTU","type":"LEAF","parent":{"id":77903},"area":1157.76,"summer_temp":15.5,"winter_temp":15.5,"activity":"DEPARTMENT-STORE-FOOD","reference_devices":[{"device":{"id":423418},"type":"OUTDOORTEMP"},{"device":{"id":423131},"type":"MAINSUPPLY"},{"device":{"id":425020},"type":"GAS"}],"address":{"street":"Thomas Road","zip":"ME13 7EN","city":"Kent","country":{"name":"United Kingdom","code":"GB"},"coordinates":{"latitude":51.316475,"longitude":0.889877}},"optimisedDate":"2018-07-11"},{"id":78816,"name":"Felixstowe Cavendish Pk Est","key":"L-BBMAHZ","type":"LEAF","parent":{"id":77903},"area":2057.34,"summer_temp":15.5,"winter_temp":15.5,"activity":"DEPARTMENT-STORE-FOOD","reference_devices":[{"device":{"id":434290},"type":"OUTDOORTEMP"},{"device":{"id":433119},"type":"MAINSUPPLY"},{"device":{"id":425013},"type":"GAS"}],"address":{"street":"Grange Farm Avenue","zip":"IP11 2FB","city":"Felixstowe","country":{"name":"United Kingdom","code":"GB"},"coordinates":{"latitude":51.968662,"longitude":1.330675}},"optimisedDate":"2018-08-13"},{"id":78819,"name":"Frodsham","key":"L-FXM09S","type":"LEAF","parent":{"id":78001},"area":1267.75,"summer_temp":15.5,"winter_temp":15.5,"activity":"DEPARTMENT-STORE-FOOD","reference_devices":[{"device":{"id":425002},"type":"GAS"},{"device":{"id":433256},"type":"MAINSUPPLY"},{"device":{"id":434293},"type":"OUTDOORTEMP"}],"address":{"street":"High Street","zip":"WA6 7HE","city":"Frodsham","country":{"name":"United Kingdom","code":"GB"},"coordinates":{"latitude":53.297443,"longitude":-2.723054}},"optimisedDate":"2018-10-05"},{"id":78837,"name":"Gorleston Blackwell Road","key":"L-JYIMUY","type":"LEAF","parent":{"id":78000},"area":1605.83,"summer_temp":15.5,"winter_temp":15.5,"activity":"DEPARTMENT-STORE-FOOD","reference_devices":[{"device":{"id":434306},"type":"OUTDOORTEMP"},{"device":{"id":425405},"type":"GAS"},{"device":{"id":433112},"type":"MAINSUPPLY"}],"address":{"street":"Blackwall Reach","zip":"NR31 6SA","city":"Gorleston-on-Sea","country":{"name":"United Kingdom","code":"GB"},"coordinates":{"latitude":52.57842,"longitude":1.729046}},"optimisedDate":"2018-08-28"},{"id":77842,"name":"Gosport Walpole Rd","key":"L-URLHZK","type":"LEAF","parent":{"id":77903},"area":2092.08,"summer_temp":15.5,"winter_temp":15.5,"activity":"DEPARTMENT-STORE-FOOD","reference_devices":[{"device":{"id":423152},"type":"MAINSUPPLY"},{"device":{"id":425007},"type":"GAS"},{"device":{"id":423416},"type":"OUTDOORTEMP"}],"address":{"street":"Walpole Road, 15","zip":"PO12 1NQ","city":"Gosport","country":{"name":"United Kingdom","code":"GB"},"coordinates":{"latitude":50.79519,"longitude":-1.1267}},"optimisedDate":"2018-10-02"},{"id":78838,"name":"Grantham Isaac Newton Centre","key":"L-PGNZ8D","type":"LEAF","parent":{"id":78000},"area":3157.12,"summer_temp":15.5,"winter_temp":15.5,"activity":"DEPARTMENT-STORE-FOOD","reference_devices":[{"device":{"id":434308},"type":"OUTDOORTEMP"},{"device":{"id":425026},"type":"GAS"},{"device":{"id":433208},"type":"MAINSUPPLY"}],"address":{"street":"Wharf Road","zip":"NG31 6EE","city":"Grantham","country":{"name":"United Kingdom","code":"GB"},"coordinates":{"latitude":52.909237,"longitude":-0.642548}},"optimisedDate":"2018-10-08"},{"id":78840,"name":"Grays London Road","key":"L-V0DDKZ","type":"LEAF","parent":{"id":77903},"area":3548.25,"summer_temp":15.5,"winter_temp":15.5,"activity":"DEPARTMENT-STORE-FOOD","reference_devices":[{"device":{"id":434311},"type":"OUTDOORTEMP"},{"device":{"id":433152},"type":"MAINSUPPLY"},{"device":{"id":425050},"type":"GAS"}],"address":{"street":"London Road, 1","zip":"RM17 5XZ","city":"Grays","country":{"name":"United Kingdom","code":"GB"},"coordinates":{"latitude":51.47762,"longitude":0.320832}},"optimisedDate":"2018-09-05"},{"id":78855,"name":"Harwich Iconfield Pk","key":"L-BWSC7E","type":"LEAF","parent":{"id":78000},"area":1762,"summer_temp":15.5,"winter_temp":15.5,"activity":"DEPARTMENT-STORE-FOOD","reference_devices":[{"device":{"id":433138},"type":"MAINSUPPLY"},{"device":{"id":434325},"type":"OUTDOORTEMP"},{"device":{"id":425119},"type":"GAS"}],"address":{"street":"Iconfield Park Garland Road","zip":"CO12","city":"Harwich","country":{"name":"United Kingdom","code":"GB"},"coordinates":{"latitude":51.94037,"longitude":1.261008}},"optimisedDate":"2018-08-15"},{"id":78866,"name":"High Wycombe Temple End","key":"L-J1MG7J","type":"LEAF","parent":{"id":78000},"area":3785.61,"summer_temp":15.5,"winter_temp":15.5,"activity":"DEPARTMENT-STORE-FOOD","reference_devices":[{"device":{"id":434333},"type":"OUTDOORTEMP"},{"device":{"id":433595},"type":"MAINSUPPLY"},{"device":{"id":425126},"type":"GAS"}],"address":{"street":"Temple End","zip":"HP13 5DS","city":"High Wycombe","country":{"name":"United Kingdom","code":"GB"},"coordinates":{"latitude":51.633774,"longitude":-0.75203}},"optimisedDate":"2018-09-10"},{"id":78867,"name":"Hinckley Stoke Rd","key":"L-LEX2ZU","type":"LEAF","parent":{"id":78000},"area":3085.68,"summer_temp":15.5,"winter_temp":15.5,"activity":"DEPARTMENT-STORE-FOOD","reference_devices":[{"device":{"id":433190},"type":"MAINSUPPLY"},{"device":{"id":425110},"type":"GAS"},{"device":{"id":434338},"type":"OUTDOORTEMP"}],"address":{"street":"Normandy Way","zip":"LE10 1YA","city":"Hinckley","country":{"name":"United Kingdom","code":"GB"},"coordinates":{"latitude":52.555115,"longitude":-1.381817}},"optimisedDate":"2018-10-10"},{"id":78870,"name":"Holyhead Penrhos","key":"L-QN1ZSE","type":"LEAF","parent":{"id":78000},"area":3123.49,"summer_temp":15.5,"winter_temp":15.5,"activity":"DEPARTMENT-STORE-FOOD","reference_devices":[],"address":{"street":"Penrhos Industrial Estate","zip":"LL65 2UQ","city":"Penrhos","country":{"name":"United Kingdom","code":"GB"},"coordinates":{"latitude":53.29989,"longitude":-4.616519}},"optimisedDate":"2018-10-09"},{"id":77849,"name":"Horndean Lakesmere Rd","key":"L-MHUYL1","type":"LEAF","parent":{"id":77903},"area":2916.04,"summer_temp":15.5,"winter_temp":15.5,"activity":"DEPARTMENT-STORE-FOOD","reference_devices":[{"device":{"id":425116},"type":"GAS"},{"device":{"id":423153},"type":"MAINSUPPLY"},{"device":{"id":423413},"type":"OUTDOORTEMP"}],"address":{"street":"Horndean","zip":"PO8 9FB","city":"Waterlooville","country":{"name":"United Kingdom","code":"GB"},"coordinates":{"latitude":50.908276,"longitude":-1.003763}},"optimisedDate":"2018-10-10"},{"id":78882,"name":"Ipswich Sproughton Road","key":"L-IAH3P1","type":"LEAF","parent":{"id":78000},"area":3638.73,"summer_temp":15.5,"winter_temp":15.5,"activity":"DEPARTMENT-STORE-FOOD","reference_devices":[{"device":{"id":434352},"type":"OUTDOORTEMP"},{"device":{"id":433151},"type":"MAINSUPPLY"},{"device":{"id":425090},"type":"GAS"}],"address":{"street":"Sproughton Road","zip":"IP1 5AH","city":"Ipswich","country":{"name":"United Kingdom","code":"GB"},"coordinates":{"latitude":52.065575,"longitude":1.121789}},"optimisedDate":"2018-09-11"},{"id":78887,"name":"Kettering Lower Street","key":"L-RX9NHW","type":"LEAF","parent":{"id":78000},"area":3805.77,"summer_temp":15.5,"winter_temp":15.5,"activity":"DEPARTMENT-STORE-FOOD","reference_devices":[{"device":{"id":433221},"type":"MAINSUPPLY"},{"device":{"id":434355},"type":"OUTDOORTEMP"},{"device":{"id":425133},"type":"GAS"}],"address":{"street":"Lower Street","zip":"NN16 8DN","city":"Kettering","country":{"name":"United Kingdom","code":"GB"},"coordinates":{"latitude":52.40156,"longitude":-0.731571}},"optimisedDate":"2018-10-01"},{"id":78891,"name":"Kingsbridge","key":"L-IO0LXL","type":"LEAF","parent":{"id":77903},"area":1142.43,"summer_temp":15.5,"winter_temp":15.5,"activity":"DEPARTMENT-STORE-FOOD","reference_devices":[{"device":{"id":425085},"type":"GAS"},{"device":{"id":433645},"type":"MAINSUPPLY"},{"device":{"id":434362},"type":"OUTDOORTEMP"}],"address":{"street":"Redford Way","zip":"TQ7","city":"Kingsbridge","country":{"name":"United Kingdom","code":"GB"},"coordinates":{"latitude":50.284946,"longitude":-3.781756}},"optimisedDate":"2018-10-09"},{"id":77850,"name":"Larkfield Maidstone","key":"L-PYOSH8","type":"LEAF","parent":{"id":77903},"area":1124.96,"summer_temp":15.5,"winter_temp":15.5,"activity":"DEPARTMENT-STORE-FOOD","reference_devices":[{"device":{"id":423140},"type":"MAINSUPPLY"},{"device":{"id":423412},"type":"OUTDOORTEMP"},{"device":{"id":425098},"type":"GAS"}],"address":{"street":"New Hythe Lane","zip":"ME20 6RZ","city":"Maidstone","country":{"name":"United Kingdom","code":"GB"},"coordinates":{"latitude":51.30943,"longitude":0.446495}},"optimisedDate":"2018-08-17"},{"id":78915,"name":"Leeds Horsforth","key":"L-XGLRNT","type":"LEAF","parent":{"id":78001},"area":2231.16,"summer_temp":15.5,"winter_temp":15.5,"activity":"DEPARTMENT-STORE-FOOD","reference_devices":[{"device":{"id":433741},"type":"MAINSUPPLY"},{"device":{"id":425152},"type":"GAS"},{"device":{"id":432312},"type":"OUTDOORTEMP"}],"address":{"street":"Town Street, 69","zip":"LS18 5BP","city":"Horsforth","country":{"name":"United Kingdom","code":"GB"},"coordinates":{"latitude":53.83828,"longitude":-1.64061}},"optimisedDate":"2018-09-24"},{"id":78916,"name":"Leeds Hunslet","key":"L-ZOLJOP","type":"LEAF","parent":{"id":78001},"area":3501.61,"summer_temp":15.5,"winter_temp":15.5,"activity":"DEPARTMENT-STORE-FOOD","reference_devices":[{"device":{"id":432383},"type":"OUTDOORTEMP"},{"device":{"id":433704},"type":"MAINSUPPLY"},{"device":{"id":425114},"type":"GAS"}],"address":{"street":"Church Street","zip":"LS10 2PE","city":"Hunslet","country":{"name":"United Kingdom","code":"GB"},"coordinates":{"latitude":53.77822,"longitude":-1.528881}},"optimisedDate":"2018-09-27"},{"id":78919,"name":"Leeds Morley","key":"L-8MGUWI","type":"LEAF","parent":{"id":78001},"area":3106.03,"summer_temp":15.5,"winter_temp":15.5,"activity":"DEPARTMENT-STORE-FOOD","reference_devices":[{"device":{"id":433707},"type":"MAINSUPPLY"},{"device":{"id":434418},"type":"OUTDOORTEMP"},{"device":{"id":425100},"type":"GAS"}],"address":{"street":"Windsor Court","zip":"LS27 9BG","city":"Morley","country":{"name":"United Kingdom","code":"GB"},"coordinates":{"latitude":53.745354,"longitude":-1.602539}},"optimisedDate":"2018-09-21"},{"id":77857,"name":"Leeds Rothwell Jailhouse Yard","key":"L-PQ8Y6K","type":"LEAF","parent":{"id":78001},"area":3589.6,"summer_temp":15.5,"winter_temp":15.5,"activity":"DEPARTMENT-STORE-FOOD","reference_devices":[{"device":{"id":423164},"type":"MAINSUPPLY"},{"device":{"id":423410},"type":"OUTDOORTEMP"},{"device":{"id":425151},"type":"GAS"}],"address":{"street":"Jail Yard Parade","zip":"LS26","city":"Rothwell","country":{"name":"United Kingdom","code":"GB"},"coordinates":{"latitude":53.748802,"longitude":-1.477675}},"optimisedDate":"2018-07-11"},{"id":78923,"name":"Leicester Freemans Pk","key":"L-POUTIJ","type":"LEAF","parent":{"id":78000},"area":3250.86,"summer_temp":15.5,"winter_temp":15.5,"activity":"DEPARTMENT-STORE-FOOD","reference_devices":[{"device":{"id":434374},"type":"OUTDOORTEMP"},{"device":{"id":433188},"type":"MAINSUPPLY"},{"device":{"id":425122},"type":"GAS"}],"address":{"street":"Aylestone Road","zip":"LE2","city":"Leicester","country":{"name":"United Kingdom","code":"GB"},"coordinates":{"latitude":52.61448,"longitude":-1.14234}},"optimisedDate":"2018-10-10"},{"id":78933,"name":"Livingston Almondvale Road","key":"L-2U9IP1","type":"LEAF","parent":{"id":78001},"area":3967.15,"summer_temp":15.5,"winter_temp":15.5,"activity":"DEPARTMENT-STORE-FOOD","reference_devices":[{"device":{"id":425416},"type":"GAS"},{"device":{"id":433544},"type":"MAINSUPPLY"}],"address":{"street":"Almondvale Road","zip":"EH54 6RQ","city":"Livingston","country":{"name":"United Kingdom","code":"GB"},"coordinates":{"latitude":55.881344,"longitude":-3.516929}},"optimisedDate":"2018-09-26"},{"id":77858,"name":"London Acton","key":"L-LYUDBD","type":"LEAF","parent":{"id":77908},"area":2178.95,"summer_temp":15.5,"winter_temp":15.5,"activity":"DEPARTMENT-STORE-FOOD","reference_devices":[{"device":{"id":425414},"type":"GAS"},{"device":{"id":423149},"type":"MAINSUPPLY"},{"device":{"id":437878},"type":"OUTDOORTEMP"}],"address":{"street":"King Street","zip":"W3 9LA","city":"Acton","country":{"name":"United Kingdom","code":"GB"},"coordinates":{"latitude":51.50791,"longitude":-0.272479}},"optimisedDate":"2018-09-01"},{"id":77860,"name":"London Erith","key":"L-6MUOQG","type":"LEAF","parent":{"id":77908},"area":4125.45,"summer_temp":15.5,"winter_temp":15.5,"activity":"DEPARTMENT-STORE-FOOD","reference_devices":[{"device":{"id":425128},"type":"GAS"},{"device":{"id":423124},"type":"MAINSUPPLY"}],"address":{"street":"James Watt Way","zip":"DA8 2AH","city":"Erith","country":{"name":"United Kingdom","code":"GB"},"coordinates":{"latitude":51.479202,"longitude":0.184951}},"optimisedDate":"2018-08-31"},{"id":77861,"name":"London Holloway","key":"L-YOOGRW","type":"LEAF","parent":{"id":77908},"area":2262.4,"summer_temp":15.5,"winter_temp":15.5,"activity":"DEPARTMENT-STORE-FOOD","reference_devices":[{"device":{"id":425113},"type":"GAS"},{"device":{"id":423406},"type":"OUTDOORTEMP"},{"device":{"id":423117},"type":"MAINSUPPLY"}],"address":{"street":"Hertslet Road, 10","zip":"N7 6PL","city":"Holloway","country":{"name":"United Kingdom","code":"GB"},"coordinates":{"latitude":51.557507,"longitude":-0.117071}},"optimisedDate":"2018-08-09"},{"id":78941,"name":"London Palmers Green","key":"L-GNSTAF","type":"LEAF","parent":{"id":77908},"area":2039.87,"summer_temp":15.5,"winter_temp":15.5,"activity":"DEPARTMENT-STORE-FOOD","reference_devices":[{"device":{"id":434445},"type":"OUTDOORTEMP"},{"device":{"id":425409},"type":"GAS"},{"device":{"id":433139},"type":"MAINSUPPLY"}],"address":{"street":"Aldermans Hill","zip":"N13","city":"Palmers Green","country":{"name":"United Kingdom","code":"GB"},"coordinates":{"latitude":51.61963,"longitude":-0.115107}},"optimisedDate":"2018-08-23"},{"id":77862,"name":"London Peckham","key":"L-HTJYJ9","type":"LEAF","parent":{"id":77908},"area":2618.1,"summer_temp":15.5,"winter_temp":15.5,"activity":"DEPARTMENT-STORE-FOOD","reference_devices":[{"device":{"id":423123},"type":"MAINSUPPLY"},{"device":{"id":425410},"type":"GAS"},{"device":{"id":437878},"type":"OUTDOORTEMP"}],"address":{"street":"Rye Lane","zip":"SE15 5EW","city":"Peckham","country":{"name":"United Kingdom","code":"GB"},"coordinates":{"latitude":51.472878,"longitude":-0.069787}},"optimisedDate":"2018-08-03"},{"id":77863,"name":"London Petts Wood","key":"L-0QI31G","type":"LEAF","parent":{"id":77908},"area":1585.58,"summer_temp":15.5,"winter_temp":15.5,"activity":"DEPARTMENT-STORE-FOOD","reference_devices":[{"device":{"id":425421},"type":"GAS"},{"device":{"id":423402},"type":"OUTDOORTEMP"},{"device":{"id":423144},"type":"MAINSUPPLY"}],"address":{"street":"Queensway, 70","zip":"BR5 1DH","city":"Orpington","country":{"name":"United Kingdom","code":"GB"},"coordinates":{"latitude":51.388252,"longitude":0.074179}},"optimisedDate":"2018-08-30"},{"id":77864,"name":"London Southwark","key":"L-M2C4DQ","type":"LEAF","parent":{"id":77908},"area":1306.96,"summer_temp":15.5,"winter_temp":15.5,"activity":"DEPARTMENT-STORE-FOOD","reference_devices":[{"device":{"id":425096},"type":"GAS"},{"device":{"id":423401},"type":"OUTDOORTEMP"},{"device":{"id":423122},"type":"MAINSUPPLY"}],"address":{"street":"Walworth Road","zip":"SE17 1JE","city":"Southwark, London","country":{"name":"United Kingdom","code":"GB"},"coordinates":{"latitude":51.488686,"longitude":-0.095976}},"optimisedDate":"2018-09-24"},{"id":77865,"name":"London Stamford Hill","key":"L-HAXMCL","type":"LEAF","parent":{"id":77908},"area":2004.2,"summer_temp":15.5,"winter_temp":15.5,"activity":"DEPARTMENT-STORE-FOOD","reference_devices":[{"device":{"id":423400},"type":"OUTDOORTEMP"},{"device":{"id":423118},"type":"MAINSUPPLY"},{"device":{"id":425156},"type":"GAS"}],"address":{"street":"Stamford Hill, 47-49","zip":"N16 5SR","city":"Stoke Newington","country":{"name":"United Kingdom","code":"GB"},"coordinates":{"latitude":51.56671,"longitude":-0.073784}},"optimisedDate":"2018-08-21"},{"id":77868,"name":"London Wimbledon","key":"L-XMEH1U","type":"LEAF","parent":{"id":77908},"area":1887.79,"summer_temp":15.5,"winter_temp":15.5,"activity":"DEPARTMENT-STORE-FOOD","reference_devices":[{"device":{"id":423126},"type":"MAINSUPPLY"},{"device":{"id":425136},"type":"GAS"}],"address":{"street":"The Broadway, 51","zip":"SW19 1QD","city":"Wimbledon","country":{"name":"United Kingdom","code":"GB"},"coordinates":{"latitude":51.419693,"longitude":-0.204378}},"optimisedDate":"2018-08-10"},{"id":78757,"name":"London Wood Green","key":"L-Q0COFV","type":"LEAF","parent":{"id":77908},"area":2341.53,"summer_temp":15.5,"winter_temp":15.5,"activity":"DEPARTMENT-STORE-FOOD","reference_devices":[{"device":{"id":426454},"type":"MAINSUPPLY"},{"device":{"id":425095},"type":"GAS"},{"device":{"id":434686},"type":"OUTDOORTEMP"}],"address":{"street":"High Road, 199","zip":"N22","city":"Wood Green, London","country":{"name":"United Kingdom","code":"GB"},"coordinates":{"latitude":51.59714,"longitude":-0.109934}},"optimisedDate":"2018-08-06"},{"id":78944,"name":"Loughborough Thorpe Acre","key":"L-RAF04Y","type":"LEAF","parent":{"id":78000},"area":2996.96,"summer_temp":15.5,"winter_temp":15.5,"activity":"DEPARTMENT-STORE-FOOD","reference_devices":[{"device":{"id":434390},"type":"OUTDOORTEMP"},{"device":{"id":433239},"type":"MAINSUPPLY"}],"address":{"street":"Gorse Covert Centre","zip":"LE11 4RZ","city":"Loughborough","country":{"name":"United Kingdom","code":"GB"},"coordinates":{"latitude":52.778572,"longitude":-1.239318}},"optimisedDate":"2018-10-09"},{"id":78945,"name":"Loughton High Rd","key":"L-UW1CEL","type":"LEAF","parent":{"id":77908},"area":2056.04,"summer_temp":15.5,"winter_temp":15.5,"activity":"DEPARTMENT-STORE-FOOD","reference_devices":[{"device":{"id":425108},"type":"GAS"},{"device":{"id":434392},"type":"OUTDOORTEMP"},{"device":{"id":433243},"type":"MAINSUPPLY"}],"address":{"street":"High Road","zip":"IG10 1RB","city":"Loughton","country":{"name":"United Kingdom","code":"GB"},"coordinates":{"latitude":51.63551,"longitude":0.039403}},"optimisedDate":"2018-08-29"},{"id":78948,"name":"Lowestoft Tower Rd","key":"L-F7SJJP","type":"LEAF","parent":{"id":78000},"area":2489.3,"summer_temp":15.5,"winter_temp":15.5,"activity":"DEPARTMENT-STORE-FOOD","reference_devices":[{"device":{"id":425115},"type":"GAS"},{"device":{"id":433162},"type":"MAINSUPPLY"}],"address":{"street":"Tower Road","zip":"NR33 7NG","city":"Lowestoft","country":{"name":"United Kingdom","code":"GB"},"coordinates":{"latitude":52.444763,"longitude":1.72235}},"optimisedDate":"2018-09-15"},{"id":77869,"name":"Maidstone Sutton Rd","key":"L-GKRRYE","type":"LEAF","parent":{"id":77903},"area":3665.58,"summer_temp":15.5,"winter_temp":15.5,"activity":"DEPARTMENT-STORE-FOOD","reference_devices":[{"device":{"id":423139},"type":"MAINSUPPLY"},{"device":{"id":423393},"type":"OUTDOORTEMP"}],"address":{"street":"Sutton Road","zip":"ME15 9NN","city":"Maidstone","country":{"name":"United Kingdom","code":"GB"},"coordinates":{"latitude":51.247063,"longitude":0.54836}},"optimisedDate":"2018-07-27"},{"id":78952,"name":"Malvern Roman Way","key":"L-054E8C","type":"LEAF","parent":{"id":78000},"area":3415.49,"summer_temp":15.5,"winter_temp":15.5,"activity":"DEPARTMENT-STORE-FOOD","reference_devices":[{"device":{"id":434399},"type":"OUTDOORTEMP"},{"device":{"id":433304},"type":"MAINSUPPLY"},{"device":{"id":425197},"type":"GAS"}],"address":{"street":"Roman Way","zip":"WR14 1PZ","city":"Malvern","country":{"name":"United Kingdom","code":"GB"},"coordinates":{"latitude":52.131348,"longitude":-2.302929}},"optimisedDate":"2018-09-26"},{"id":78756,"name":"Mansfield Sutton Road","key":"L-7JYV9U","type":"LEAF","parent":{"id":78000},"area":3903.69,"summer_temp":15.5,"winter_temp":15.5,"activity":"DEPARTMENT-STORE-FOOD","reference_devices":[{"device":{"id":425182},"type":"GAS"},{"device":{"id":434401},"type":"OUTDOORTEMP"},{"device":{"id":426451},"type":"MAINSUPPLY"}],"address":{"street":"Sutton Road, 238","zip":"NG18 5HL","city":"Mansfield","country":{"name":"United Kingdom","code":"GB"},"coordinates":{"latitude":53.13543,"longitude":-1.224029}},"optimisedDate":"2018-08-06"},{"id":77871,"name":"Margate","key":"L-HLOTNP","type":"LEAF","parent":{"id":77903},"area":1742.49,"summer_temp":15.5,"winter_temp":15.5,"activity":"DEPARTMENT-STORE-FOOD","reference_devices":[{"device":{"id":423132},"type":"MAINSUPPLY"},{"device":{"id":425171},"type":"GAS"},{"device":{"id":423392},"type":"OUTDOORTEMP"}],"address":{"street":"Hawley Street","zip":"CT9 1QA","city":"Margate","country":{"name":"United Kingdom","code":"GB"},"coordinates":{"latitude":51.389256,"longitude":1.38314}},"optimisedDate":"2018-07-31"},{"id":78959,"name":"Melton Mowbray Sherrard St","key":"L-V6U2UF","type":"LEAF","parent":{"id":78000},"area":1899.87,"summer_temp":15.5,"winter_temp":15.5,"activity":"DEPARTMENT-STORE-FOOD","reference_devices":[{"device":{"id":434408},"type":"OUTDOORTEMP"},{"device":{"id":433210},"type":"MAINSUPPLY"},{"device":{"id":425412},"type":"GAS"}],"address":{"street":"Rutland Street","zip":"LE13 1QR","city":"Melton Mowbray","country":{"name":"United Kingdom","code":"GB"},"coordinates":{"latitude":52.76519,"longitude":-0.881546}},"optimisedDate":"2018-10-09"},{"id":78965,"name":"Milton Keynes Westcroft","key":"L-QID5HA","type":"LEAF","parent":{"id":78000},"area":4425.34,"summer_temp":15.5,"winter_temp":15.5,"activity":"DEPARTMENT-STORE-FOOD","reference_devices":[],"address":{"street":"Barnsdale Drive","zip":"MK4 4DD","city":"Westcroft","country":{"name":"United Kingdom","code":"GB"},"coordinates":{"latitude":52.004585,"longitude":-0.793124}},"optimisedDate":"2018-09-14"},{"id":78971,"name":"Nailsworth","key":"L-ILBHHR","type":"LEAF","parent":{"id":77903},"area":1003.82,"summer_temp":15.5,"winter_temp":15.5,"activity":"DEPARTMENT-STORE-FOOD","reference_devices":[{"device":{"id":434423},"type":"OUTDOORTEMP"},{"device":{"id":433322},"type":"MAINSUPPLY"},{"device":{"id":425172},"type":"GAS"}],"address":{"street":"George Street","zip":"GL6 0AG","city":"Nailsworth","country":{"name":"United Kingdom","code":"GB"},"coordinates":{"latitude":51.696552,"longitude":-2.217273}},"optimisedDate":"2018-10-02"},{"id":78996,"name":"Newport (Gwent) Rogerstone","key":"L-SFQP2Y","type":"LEAF","parent":{"id":77903},"area":2860.02,"summer_temp":15.5,"winter_temp":15.5,"activity":"DEPARTMENT-STORE-FOOD","reference_devices":[{"device":{"id":433611},"type":"MAINSUPPLY"},{"device":{"id":425223},"type":"GAS"},{"device":{"id":434470},"type":"OUTDOORTEMP"}],"address":{"street":"Azalea Road","zip":"NP10 9SA","city":"Rogerstone","country":{"name":"United Kingdom","code":"GB"},"coordinates":{"latitude":51.59852,"longitude":-3.082299}},"optimisedDate":"2018-09-21"},{"id":78999,"name":"Northampton Kettering Road","key":"L-ZW6UZF","type":"LEAF","parent":{"id":78000},"area":3580.7,"summer_temp":15.5,"winter_temp":15.5,"activity":"DEPARTMENT-STORE-FOOD","reference_devices":[{"device":{"id":434438},"type":"OUTDOORTEMP"},{"device":{"id":433214},"type":"MAINSUPPLY"},{"device":{"id":425201},"type":"GAS"}],"address":{"street":"Kettering Road","zip":"NN3 6AA","city":"Northampton","country":{"name":"United Kingdom","code":"GB"},"coordinates":{"latitude":52.255276,"longitude":-0.874197}},"optimisedDate":"2018-09-20"},{"id":79000,"name":"Northampton Victoria Promenade","key":"L-9CDORN","type":"LEAF","parent":{"id":78000},"area":3608.54,"summer_temp":15.5,"winter_temp":15.5,"activity":"DEPARTMENT-STORE-FOOD","reference_devices":[{"device":{"id":434439},"type":"OUTDOORTEMP"},{"device":{"id":425210},"type":"GAS"}],"address":{"street":"Victoria Promenade, 26","zip":"NN1 1HB","city":"Northampton","country":{"name":"United Kingdom","code":"GB"},"coordinates":{"latitude":52.232933,"longitude":-0.895231}},"optimisedDate":"2018-09-18"},{"id":79001,"name":"Norwich Catton","key":"L-9WGAJS","type":"LEAF","parent":{"id":78000},"area":1142.4,"summer_temp":15.5,"winter_temp":15.5,"activity":"DEPARTMENT-STORE-FOOD","reference_devices":[{"device":{"id":433115},"type":"MAINSUPPLY"},{"device":{"id":434184},"type":"OUTDOORTEMP"},{"device":{"id":425170},"type":"GAS"}],"address":{"street":"The Paddocks, 100","zip":"NR6 7HS","city":"Norwich","country":{"name":"United Kingdom","code":"GB"},"coordinates":{"latitude":52.66943,"longitude":1.306922}},"optimisedDate":"2018-08-28"},{"id":78990,"name":"Nottingham Eastwood","key":"L-AE8X4W","type":"LEAF","parent":{"id":78000},"area":2647.3,"summer_temp":15.5,"winter_temp":15.5,"activity":"DEPARTMENT-STORE-FOOD","reference_devices":[],"address":{"street":"Derby Road","zip":"NG16 3NT","city":"Eastwood","country":{"name":"United Kingdom","code":"GB"},"coordinates":{"latitude":53.017387,"longitude":-1.311096}},"optimisedDate":"2018-10-11"},{"id":78989,"name":"Nottingham Gamston","key":"L-SUL1IN","type":"LEAF","parent":{"id":78000},"area":4067.39,"summer_temp":15.5,"winter_temp":15.5,"activity":"DEPARTMENT-STORE-FOOD","reference_devices":[{"device":{"id":434298},"type":"OUTDOORTEMP"},{"device":{"id":433196},"type":"MAINSUPPLY"},{"device":{"id":425248},"type":"GAS"}],"address":{"street":"Gamston District Centre","zip":"NG2 6PS","city":"West Bridgford","country":{"name":"United Kingdom","code":"GB"},"coordinates":{"latitude":52.92432,"longitude":-1.102077}},"optimisedDate":"2018-10-11"},{"id":79003,"name":"Oxted Station Yard","key":"L-9OPLKZ","type":"LEAF","parent":{"id":77903},"area":2063.93,"summer_temp":15.5,"winter_temp":15.5,"activity":"DEPARTMENT-STORE-FOOD","reference_devices":[{"device":{"id":434246},"type":"OUTDOORTEMP"},{"device":{"id":425205},"type":"GAS"},{"device":{"id":433564},"type":"MAINSUPPLY"}],"address":{"street":"East Hill, 43","zip":"RH8 0BP","city":"Oxted","country":{"name":"United Kingdom","code":"GB"},"coordinates":{"latitude":51.256065,"longitude":-0.004449}},"optimisedDate":"2018-08-14"},{"id":79010,"name":"Peterborough Lincoln Rd","key":"L-X1F3SN","type":"LEAF","parent":{"id":78000},"area":3025.02,"summer_temp":15.5,"winter_temp":15.5,"activity":"DEPARTMENT-STORE-FOOD","reference_devices":[{"device":{"id":425202},"type":"GAS"},{"device":{"id":433141},"type":"MAINSUPPLY"},{"device":{"id":434450},"type":"OUTDOORTEMP"}],"address":{"street":"Lincoln Road","zip":"PE6 9BH","city":"Northborough","country":{"name":"United Kingdom","code":"GB"},"coordinates":{"latitude":52.659008,"longitude":-0.301495}},"optimisedDate":"2018-10-07"},{"id":77875,"name":"Portsmouth","key":"L-BSFLFW","type":"LEAF","parent":{"id":77903},"area":3308.83,"summer_temp":15.5,"winter_temp":15.5,"activity":"DEPARTMENT-STORE-FOOD","reference_devices":[{"device":{"id":425238},"type":"GAS"},{"device":{"id":423388},"type":"OUTDOORTEMP"},{"device":{"id":423161},"type":"MAINSUPPLY"}],"address":{"street":"Flathouse Road","zip":"PO1 3NT","city":"Portsmouth","country":{"name":"United Kingdom","code":"GB"},"coordinates":{"latitude":50.80585,"longitude":-1.089436}},"optimisedDate":"2018-10-11"},{"id":79017,"name":"Portsmouth","key":"L-MCMCPC","type":"LEAF","parent":{"id":77903},"area":3308.83,"summer_temp":15.5,"winter_temp":15.5,"activity":"DEPARTMENT-STORE-FOOD","reference_devices":[],"address":{"street":"Flathouse Road","zip":"PO1 4QP","city":"Portsmouth","country":{"name":"United Kingdom","code":"GB"},"coordinates":{"latitude":50.806274,"longitude":-1.088786}},"optimisedDate":"2018-10-11"},{"id":79022,"name":"Reading Basingstoke Lane","key":"L-UCZBEK","type":"LEAF","parent":{"id":77903},"area":3842.75,"summer_temp":15.5,"winter_temp":15.5,"activity":"DEPARTMENT-STORE-FOOD","reference_devices":[{"device":{"id":433587},"type":"MAINSUPPLY"},{"device":{"id":434461},"type":"OUTDOORTEMP"},{"device":{"id":425200},"type":"GAS"}],"address":{"street":"Basingstoke Road","zip":"RG2 0HB","city":"Reading","country":{"name":"United Kingdom","code":"GB"},"coordinates":{"latitude":51.434185,"longitude":-0.968582}},"optimisedDate":"2018-10-05"},{"id":79037,"name":"Ross on Wye Station St","key":"L-JD5RXM","type":"LEAF","parent":{"id":77903},"area":3031.05,"summer_temp":15.5,"winter_temp":15.5,"activity":"DEPARTMENT-STORE-FOOD","reference_devices":[{"device":{"id":434472},"type":"OUTDOORTEMP"},{"device":{"id":433314},"type":"MAINSUPPLY"},{"device":{"id":425231},"type":"GAS"}],"address":{"street":"Station Street, 1","zip":"HR9 7AQ","city":"Ross On Wye","country":{"name":"United Kingdom","code":"GB"},"coordinates":{"latitude":51.916573,"longitude":-2.578887}},"optimisedDate":"2018-09-25"},{"id":79041,"name":"Royston","key":"L-NBRKNH","type":"LEAF","parent":{"id":77908},"area":1027.51,"summer_temp":15.5,"winter_temp":15.5,"activity":"DEPARTMENT-STORE-FOOD","reference_devices":[{"device":{"id":425243},"type":"GAS"},{"device":{"id":433111},"type":"MAINSUPPLY"},{"device":{"id":434477},"type":"OUTDOORTEMP"}],"address":{"street":"Upper King Street","zip":"SG8 9AZ","city":"Royston","country":{"name":"United Kingdom","code":"GB"},"coordinates":{"latitude":52.046707,"longitude":-0.023743}},"optimisedDate":"2018-08-18"},{"id":77879,"name":"Seaford Dane Rd","key":"L-6SDJXQ","type":"LEAF","parent":{"id":77903},"area":1745.28,"summer_temp":15.5,"winter_temp":15.5,"activity":"DEPARTMENT-STORE-FOOD","reference_devices":[{"device":{"id":425386},"type":"GAS"},{"device":{"id":423383},"type":"OUTDOORTEMP"},{"device":{"id":423136},"type":"MAINSUPPLY"}],"address":{"street":"Dane Road","zip":"BN25 1LL","city":"Seaford","country":{"name":"United Kingdom","code":"GB"},"coordinates":{"latitude":50.772377,"longitude":0.100035}},"optimisedDate":"2018-08-22"},{"id":79055,"name":"Shefford","key":"L-KNBSEJ","type":"LEAF","parent":{"id":78000},"area":1273.05,"summer_temp":15.5,"winter_temp":15.5,"activity":"DEPARTMENT-STORE-FOOD","reference_devices":[{"device":{"id":433110},"type":"MAINSUPPLY"},{"device":{"id":434528},"type":"OUTDOORTEMP"},{"device":{"id":425215},"type":"GAS"}],"address":{"street":"Saint Francis Way","zip":"SG17 5RU","city":"Shefford","country":{"name":"United Kingdom","code":"GB"},"coordinates":{"latitude":52.03746,"longitude":-0.335048}},"optimisedDate":"2018-09-07"},{"id":79058,"name":"Shrewsbury Whitchurch Road","key":"L-VG71AD","type":"LEAF","parent":{"id":78000},"area":3007.18,"summer_temp":15.5,"winter_temp":15.5,"activity":"DEPARTMENT-STORE-FOOD","reference_devices":[{"device":{"id":433320},"type":"MAINSUPPLY"},{"device":{"id":425193},"type":"GAS"},{"device":{"id":434532},"type":"OUTDOORTEMP"}],"address":{"street":"Whitchurch Road","zip":"SY1 4EU","city":"Shrewsbury","country":{"name":"United Kingdom","code":"GB"},"coordinates":{"latitude":52.734417,"longitude":-2.726918}},"optimisedDate":"2018-09-19"},{"id":77880,"name":"Sidcup Westwood Lane","key":"L-TZCO3K","type":"LEAF","parent":{"id":77908},"area":2114.75,"summer_temp":15.5,"winter_temp":15.5,"activity":"DEPARTMENT-STORE-FOOD","reference_devices":[{"device":{"id":425225},"type":"GAS"},{"device":{"id":423381},"type":"OUTDOORTEMP"},{"device":{"id":423127},"type":"MAINSUPPLY"}],"address":{"street":"Jenner Close, 1","zip":"DA14 6BF","city":"Sidcup","country":{"name":"United Kingdom","code":"GB"},"coordinates":{"latitude":51.424843,"longitude":0.102966}},"optimisedDate":"2018-07-26"},{"id":79068,"name":"St Albans Hatfield Rd","key":"L-72WM8J","type":"LEAF","parent":{"id":78000},"area":3287.84,"summer_temp":15.5,"winter_temp":15.5,"activity":"DEPARTMENT-STORE-FOOD","reference_devices":[{"device":{"id":434548},"type":"OUTDOORTEMP"},{"device":{"id":433124},"type":"MAINSUPPLY"},{"device":{"id":425308},"type":"GAS"}],"address":{"street":"Hatfield Road, 244","zip":"AL1 4SU","city":"St Albans","country":{"name":"United Kingdom","code":"GB"},"coordinates":{"latitude":51.75144,"longitude":-0.311288}},"optimisedDate":"2018-08-14"},{"id":79079,"name":"Stranraer London Rd","key":"L-IBPZLC","type":"LEAF","parent":{"id":78001},"area":1783.37,"summer_temp":15.5,"winter_temp":15.5,"activity":"DEPARTMENT-STORE-FOOD","reference_devices":[{"device":{"id":425304},"type":"GAS"},{"device":{"id":434598},"type":"OUTDOORTEMP"},{"device":{"id":433502},"type":"MAINSUPPLY"}],"address":{"street":"London Road","zip":"DG9 8BZ","city":"Stranraer","country":{"name":"United Kingdom","code":"GB"},"coordinates":{"latitude":54.903984,"longitude":-5.00302}},"optimisedDate":"2018-10-09"},{"id":77847,"name":"Strood","key":"L-8BXUDM","type":"LEAF","parent":{"id":77903},"area":3605.66,"summer_temp":15.5,"winter_temp":15.5,"activity":"DEPARTMENT-STORE-FOOD","reference_devices":[{"device":{"id":425318},"type":"GAS"},{"device":{"id":423380},"type":"OUTDOORTEMP"},{"device":{"id":423145},"type":"MAINSUPPLY"}],"address":{"street":"","zip":"ME2 2AA","city":"Rochester, Strood","country":{"name":"United Kingdom","code":"GB"},"coordinates":{"latitude":51.392944,"longitude":0.493191}},"optimisedDate":"2018-07-28"},{"id":77845,"name":"Sutton Cheam Road","key":"L-3LBBZW","type":"LEAF","parent":{"id":77908},"area":3395.9,"summer_temp":15.5,"winter_temp":15.5,"activity":"DEPARTMENT-STORE-FOOD","reference_devices":[{"device":{"id":423135},"type":"MAINSUPPLY"},{"device":{"id":425422},"type":"GAS"},{"device":{"id":423373},"type":"OUTDOORTEMP"}],"address":{"street":"Cheam Road","zip":"SM1 1DD","city":"Sutton","country":{"name":"United Kingdom","code":"GB"},"coordinates":{"latitude":51.360443,"longitude":-0.202884}},"optimisedDate":"2018-07-30"},{"id":79087,"name":"Swindon Haydon Wick","key":"L-O4NJC3","type":"LEAF","parent":{"id":77903},"area":1879.99,"summer_temp":15.5,"winter_temp":15.5,"activity":"DEPARTMENT-STORE-FOOD","reference_devices":[],"address":{"street":"Thames Avenue","zip":"SN25 1QQ","city":"Swindon","country":{"name":"United Kingdom","code":"GB"},"coordinates":{"latitude":51.59213,"longitude":-1.807587}},"optimisedDate":"2018-10-09"},{"id":79175,"name":"Tamworth","key":"L-9NQ2AK","type":"LEAF","parent":{"id":78000},"area":863.72,"summer_temp":15.5,"winter_temp":15.5,"activity":"DEPARTMENT-STORE-FOOD","reference_devices":[],"address":{"street":"Upper Gungate","zip":"B79 7NU","city":"Tamworth","country":{"name":"United Kingdom","code":"GB"},"coordinates":{"latitude":52.63716,"longitude":-1.694642}}},{"id":79178,"name":"Tavistock Plymouth Rd","key":"L-GOHFIR","type":"LEAF","parent":{"id":77903},"area":2247.97,"summer_temp":15.5,"winter_temp":15.5,"activity":"DEPARTMENT-STORE-FOOD","reference_devices":[{"device":{"id":433652},"type":"MAINSUPPLY"},{"device":{"id":434628},"type":"OUTDOORTEMP"},{"device":{"id":425274},"type":"GAS"}],"address":{"street":"Plymouth Road","zip":"PL19 9DS","city":"Tavistock","country":{"name":"United Kingdom","code":"GB"},"coordinates":{"latitude":50.537815,"longitude":-4.146193}},"optimisedDate":"2018-10-14"},{"id":79188,"name":"Totnes Coronation Rd","key":"L-D8XMGL","type":"LEAF","parent":{"id":77903},"area":2014.97,"summer_temp":15.5,"winter_temp":15.5,"activity":"DEPARTMENT-STORE-FOOD","reference_devices":[{"device":{"id":425286},"type":"GAS"},{"device":{"id":433651},"type":"MAINSUPPLY"},{"device":{"id":434640},"type":"OUTDOORTEMP"}],"address":{"street":"Coronation Road","zip":"TQ9 5DF","city":"Totnes","country":{"name":"United Kingdom","code":"GB"},"coordinates":{"latitude":50.43205,"longitude":-3.683164}},"optimisedDate":"2018-10-10"},{"id":79189,"name":"Troon Academy St","key":"L-WWE8FC","type":"LEAF","parent":{"id":78001},"area":2246.49,"summer_temp":15.5,"winter_temp":15.5,"activity":"DEPARTMENT-STORE-FOOD","reference_devices":[{"device":{"id":433540},"type":"MAINSUPPLY"},{"device":{"id":425312},"type":"GAS"},{"device":{"id":434639},"type":"OUTDOORTEMP"}],"address":{"street":"Dukes Road","zip":"KA10 6QR","city":"Troon","country":{"name":"United Kingdom","code":"GB"},"coordinates":{"latitude":55.54521,"longitude":-4.66638}},"optimisedDate":"2018-10-11"},{"id":79190,"name":"Tynemouth Preston Grange","key":"L-ZLWODN","type":"LEAF","parent":{"id":78001},"area":4125.73,"summer_temp":15.5,"winter_temp":15.5,"activity":"DEPARTMENT-STORE-FOOD","reference_devices":[{"device":{"id":434642},"type":"OUTDOORTEMP"},{"device":{"id":425275},"type":"GAS"},{"device":{"id":433385},"type":"MAINSUPPLY"}],"address":{"street":"Preston North Road","zip":"NE29 9QR","city":"Tynemouth","country":{"name":"United Kingdom","code":"GB"},"coordinates":{"latitude":55.02376,"longitude":-1.454069}},"optimisedDate":"2018-10-09"},{"id":77843,"name":"Verwood - Verwood Centre","key":"L-97LHPH","type":"LEAF","parent":{"id":77903},"area":3358.72,"summer_temp":15.5,"winter_temp":15.5,"activity":"DEPARTMENT-STORE-FOOD","reference_devices":[{"device":{"id":423371},"type":"OUTDOORTEMP"},{"device":{"id":425327},"type":"GAS"},{"device":{"id":423162},"type":"MAINSUPPLY"}],"address":{"street":"Chiltern Drive","zip":"BH31 6US","city":"Verwood","country":{"name":"United Kingdom","code":"GB"},"coordinates":{"latitude":50.87728,"longitude":-1.877186}},"optimisedDate":"2018-09-07"},{"id":79191,"name":"Wakefield Dewsbury Road","key":"L-OHLNM7","type":"LEAF","parent":{"id":78001},"area":3256.99,"summer_temp":15.5,"winter_temp":15.5,"activity":"DEPARTMENT-STORE-FOOD","reference_devices":[{"device":{"id":425263},"type":"GAS"},{"device":{"id":434238},"type":"OUTDOORTEMP"},{"device":{"id":433713},"type":"MAINSUPPLY"}],"address":{"street":"Dewsbury Road","zip":"WF2 9BY","city":"Wakefield","country":{"name":"United Kingdom","code":"GB"},"coordinates":{"latitude":53.67816,"longitude":-1.525054}},"optimisedDate":"2018-10-09"},{"id":79193,"name":"Walsall Lichfield St","key":"L-KFXW3I","type":"LEAF","parent":{"id":78000},"area":2468.06,"summer_temp":15.5,"winter_temp":15.5,"activity":"DEPARTMENT-STORE-FOOD","reference_devices":[{"device":{"id":434654},"type":"OUTDOORTEMP"},{"device":{"id":425265},"type":"GAS"},{"device":{"id":433325},"type":"MAINSUPPLY"}],"address":{"street":"Lichfield Street","zip":"WS4 2BY","city":"Walsall","country":{"name":"United Kingdom","code":"GB"},"coordinates":{"latitude":52.587208,"longitude":-1.977464}},"optimisedDate":"2018-09-24"},{"id":77841,"name":"Welling","key":"L-MFBZN8","type":"LEAF","parent":{"id":77908},"area":2964.3,"summer_temp":15.5,"winter_temp":15.5,"activity":"DEPARTMENT-STORE-FOOD","reference_devices":[{"device":{"id":423128},"type":"MAINSUPPLY"},{"device":{"id":423370},"type":"OUTDOORTEMP"}],"address":{"street":"Welling High Street","zip":"DA16","city":"Welling","country":{"name":"United Kingdom","code":"GB"},"coordinates":{"latitude":51.462048,"longitude":0.110643}},"optimisedDate":"2018-08-31"},{"id":79199,"name":"Wellingborough Oxford Street","key":"L-IIYNBY","type":"LEAF","parent":{"id":78000},"area":4145.33,"summer_temp":15.5,"winter_temp":15.5,"activity":"DEPARTMENT-STORE-FOOD","reference_devices":[{"device":{"id":425306},"type":"GAS"},{"device":{"id":433222},"type":"MAINSUPPLY"},{"device":{"id":434661},"type":"OUTDOORTEMP"}],"address":{"street":"Oxford Street, 2-5","zip":"NN8 4LL","city":"Wellingborough","country":{"name":"United Kingdom","code":"GB"},"coordinates":{"latitude":52.300514,"longitude":-0.695355}},"optimisedDate":"2018-09-22"},{"id":79284,"name":"Welshpool Berriew St","key":"L-5IVINC","type":"LEAF","parent":{"id":78000},"area":1235.98,"summer_temp":15.5,"winter_temp":15.5,"activity":"DEPARTMENT-STORE-FOOD","reference_devices":[{"device":{"id":425431},"type":"GAS"},{"device":{"id":433271},"type":"MAINSUPPLY"},{"device":{"id":434664},"type":"OUTDOORTEMP"}],"address":{"street":"Berriew Street","zip":"SY21 7SQ","city":"Welshpool","country":{"name":"United Kingdom","code":"GB"},"coordinates":{"latitude":52.659023,"longitude":-3.147675}},"optimisedDate":"2018-09-21"},{"id":79286,"name":"Westbury","key":"L-ZEZML1","type":"LEAF","parent":{"id":77903},"area":1059.47,"summer_temp":15.5,"winter_temp":15.5,"activity":"DEPARTMENT-STORE-FOOD","reference_devices":[{"device":{"id":434663},"type":"OUTDOORTEMP"},{"device":{"id":425296},"type":"GAS"},{"device":{"id":433597},"type":"MAINSUPPLY"}],"address":{"street":"Edward Street, 42","zip":"BA13 3BL","city":"Westbury, Wiltshire","country":{"name":"United Kingdom","code":"GB"},"coordinates":{"latitude":51.26001,"longitude":-2.183727}},"optimisedDate":"2018-09-20"},{"id":77905,"name":"West Kirby","key":"L-UQSN1D","type":"LEAF","parent":{"id":78001},"area":1735.7,"summer_temp":15.5,"winter_temp":15.5,"activity":"DEPARTMENT-STORE-FOOD","reference_devices":[{"device":{"id":424662},"type":"MAINSUPPLY"},{"device":{"id":418416},"type":"OUTDOORTEMP"},{"device":{"id":425281},"type":"GAS"}],"address":{"street":"Dee Lane, 38","zip":"CH48 0QA","city":"West Kirby","country":{"name":"United Kingdom","code":"GB"},"coordinates":{"latitude":53.37223,"longitude":-3.185862}},"optimisedDate":"2018-06-14"},{"id":77840,"name":"Weymouth Dorchester Rd","key":"L-1OXNVX","type":"LEAF","parent":{"id":77903},"area":3347.76,"summer_temp":15.5,"winter_temp":15.5,"activity":"DEPARTMENT-STORE-FOOD","reference_devices":[{"device":{"id":423160},"type":"MAINSUPPLY"},{"device":{"id":423369},"type":"OUTDOORTEMP"},{"device":{"id":425270},"type":"GAS"}],"address":{"street":"Dorchester Road","zip":"DT3 5JA","city":"Weymouth","country":{"name":"United Kingdom","code":"GB"},"coordinates":{"latitude":50.633766,"longitude":-2.465147}},"optimisedDate":"2018-10-01"},{"id":78640,"name":"Willenhall","key":"L-LFZ9ZV","type":"LEAF","parent":{"id":78000},"area":3407.87,"summer_temp":15.5,"winter_temp":15.5,"activity":"DEPARTMENT-STORE-FOOD","reference_devices":[{"device":{"id":425326},"type":"GAS"},{"device":{"id":433337},"type":"MAINSUPPLY"},{"device":{"id":434673},"type":"OUTDOORTEMP"}],"address":{"street":"Wood Street","zip":"WV13 1QG","city":"Willenhall, Walsall","country":{"name":"United Kingdom","code":"GB"},"coordinates":{"latitude":52.586124,"longitude":-2.053727}},"optimisedDate":"2018-09-27"},{"id":78637,"name":"Winsford Wharton","key":"L-TMHGEA","type":"LEAF","parent":{"id":78000},"area":4581.79,"summer_temp":15.5,"winter_temp":15.5,"activity":"DEPARTMENT-STORE-FOOD","reference_devices":[{"device":{"id":425282},"type":"GAS"},{"device":{"id":434677},"type":"OUTDOORTEMP"},{"device":{"id":433261},"type":"MAINSUPPLY"}],"address":{"street":"Nat Lane","zip":"CW7 3BS","city":"Winsford","country":{"name":"United Kingdom","code":"GB"},"coordinates":{"latitude":53.19886,"longitude":-2.511424}},"optimisedDate":"2018-09-03"},{"id":78635,"name":"Wisbech","key":"L-BJDSLI","type":"LEAF","parent":{"id":78000},"area":2950.51,"summer_temp":15.5,"winter_temp":15.5,"activity":"DEPARTMENT-STORE-FOOD","reference_devices":[{"device":{"id":433159},"type":"MAINSUPPLY"},{"device":{"id":434678},"type":"OUTDOORTEMP"},{"device":{"id":425329},"type":"GAS"}],"address":{"street":"Peel Centre Retail Park, Elm High Road","zip":"PE13 2SJ","city":"Wisbech","country":{"name":"United Kingdom","code":"GB"},"coordinates":{"latitude":52.650097,"longitude":0.174104}},"optimisedDate":"2018-08-08"},{"id":78633,"name":"Witham Braintree Rd","key":"L-ZQXA1L","type":"LEAF","parent":{"id":77903},"area":1898.01,"summer_temp":15.5,"winter_temp":15.5,"activity":"DEPARTMENT-STORE-FOOD","reference_devices":[{"device":{"id":433130},"type":"MAINSUPPLY"},{"device":{"id":425280},"type":"GAS"},{"device":{"id":434681},"type":"OUTDOORTEMP"}],"address":{"street":"Braintree Road","zip":"CM8 2BY","city":"Witham","country":{"name":"United Kingdom","code":"GB"},"coordinates":{"latitude":51.809708,"longitude":0.638311}},"optimisedDate":"2018-08-24"},{"id":78631,"name":"Wokingham Woosehill","key":"L-RHJDOC","type":"LEAF","parent":{"id":77903},"area":1600.25,"summer_temp":15.5,"winter_temp":15.5,"activity":"DEPARTMENT-STORE-FOOD","reference_devices":[{"device":{"id":434683},"type":"OUTDOORTEMP"},{"device":{"id":425271},"type":"GAS"},{"device":{"id":433583},"type":"MAINSUPPLY"}],"address":{"street":"Woosehill Shopping Cnt","zip":"RG41 3SW","city":"Wokingham","country":{"name":"United Kingdom","code":"GB"},"coordinates":{"latitude":51.414433,"longitude":-0.85401}},"optimisedDate":"2018-09-25"},{"id":78623,"name":"Yate Station Rd","key":"L-RYHMQB","type":"LEAF","parent":{"id":77903},"area":2635.38,"summer_temp":15.5,"winter_temp":15.5,"activity":"DEPARTMENT-STORE-FOOD","reference_devices":[{"device":{"id":433316},"type":"MAINSUPPLY"},{"device":{"id":425335},"type":"GAS"},{"device":{"id":434701},"type":"OUTDOORTEMP"}],"address":{"street":"Station Road, 96","zip":"BS37 4PH","city":"Yate","country":{"name":"United Kingdom","code":"GB"},"coordinates":{"latitude":51.540466,"longitude":-2.423114}},"optimisedDate":"2018-09-28"}]