[{"id":78639,"name":"Aberdeen King St","key":"L-RZIFNJ","type":"LEAF","parent":{"id":78001},"area":2934.3,"summer_temp":15.5,"winter_temp":15.5,"activity":"DEPARTMENT-STORE-FOOD","reference_devices":[{"device":{"id":433473},"type":"MAINSUPPLY"},{"device":{"id":424947},"type":"GAS"}],"address":{"street":"King Street, 215","zip":"AB24 5DA","city":"Aberdeen","country":{"name":"United Kingdom","code":"GB"},"coordinates":{"latitude":57.152493,"longitude":-2.095359}}},{"id":78641,"name":"Aberystwyth Parc Y Llyn","key":"L-G9GEKH","type":"LEAF","parent":{"id":78000},"area":2945.9,"summer_temp":15.5,"winter_temp":15.5,"activity":"DEPARTMENT-STORE-FOOD","reference_devices":[{"device":{"id":433267},"type":"MAINSUPPLY"},{"device":{"id":424958},"type":"GAS"},{"device":{"id":433089},"type":"OUTDOORTEMP"}],"address":{"street":"Llanbadarn Fawr","zip":"SY23 3RN","city":"Aberystwyth","country":{"name":"United Kingdom","code":"GB"},"coordinates":{"latitude":52.40586,"longitude":-4.064453}},"optimisedDate":"2018-10-05T00%3A00%3A00"},{"id":78643,"name":"Airdrie Gartlea Rd","key":"L-AHWQ02","type":"LEAF","parent":{"id":78001},"area":3125.91,"summer_temp":15.5,"winter_temp":15.5,"activity":"DEPARTMENT-STORE-FOOD","reference_devices":[],"address":{"street":"Gartlea Road","zip":"ML6 9LH","city":"Airdrie","country":{"name":"United Kingdom","code":"GB"},"coordinates":{"latitude":55.86123,"longitude":-3.973576}},"optimisedDate":"2018-10-16T00%3A00%3A00"},{"id":78644,"name":"Aldershot","key":"L-UJANPH","type":"LEAF","parent":{"id":77903},"area":3990.09,"summer_temp":15.5,"winter_temp":15.5,"activity":"DEPARTMENT-STORE-FOOD","reference_devices":[],"address":{"street":"Alexandra Road","zip":"GU11 3PP","city":"Aldershot","country":{"name":"United Kingdom","code":"GB"},"coordinates":{"latitude":51.24859,"longitude":-0.775382}}},{"id":78645,"name":"Aldridge Anchor Rd","key":"L-9FWIXW","type":"LEAF","parent":{"id":78000},"area":2474.1,"summer_temp":15.5,"winter_temp":15.5,"activity":"DEPARTMENT-STORE-FOOD","reference_devices":[],"address":{"street":"Anchor Road","zip":"WS9 8PT","city":"Aldridge","country":{"name":"United Kingdom","code":"GB"},"coordinates":{"latitude":52.604084,"longitude":-1.918517}}},{"id":78646,"name":"Alloa Clackmannan Rd","key":"L-PRBKCK","type":"LEAF","parent":{"id":78001},"area":2125.62,"summer_temp":15.5,"winter_temp":15.5,"activity":"DEPARTMENT-STORE-FOOD","reference_devices":[],"address":{"street":"Clackmannan Road","zip":"FK10 1RR","city":"Alloa","country":{"name":"United Kingdom","code":"GB"},"coordinates":{"latitude":56.116016,"longitude":-3.779297}},"optimisedDate":"2018-10-15T00%3A00%3A00"},{"id":78647,"name":"Alness","key":"L-HE9OTH","type":"LEAF","parent":{"id":78001},"area":1553.9,"summer_temp":15.5,"winter_temp":15.5,"activity":"DEPARTMENT-STORE-FOOD","reference_devices":[],"address":{"street":"Dalmore Road","zip":"IV17 0UY","city":"Alness","country":{"name":"United Kingdom","code":"GB"},"coordinates":{"latitude":57.69354,"longitude":-4.251224}},"optimisedDate":"2018-10-16T00%3A00%3A00"},{"id":78648,"name":"Alnwick - Fenkle Street","key":"L-OS6EKS","type":"LEAF","parent":{"id":78001},"area":1383.98,"summer_temp":15.5,"winter_temp":15.5,"activity":"DEPARTMENT-STORE-FOOD","reference_devices":[],"address":{"street":"Fenkle Street","zip":"NE66 1HW","city":"Alnwick","country":{"name":"United Kingdom","code":"GB"},"coordinates":{"latitude":55.413616,"longitude":-1.707788}}},{"id":78649,"name":"Arbroath Hume St","key":"L-FKIEGA","type":"LEAF","parent":{"id":78001},"area":2086.6,"summer_temp":15.5,"winter_temp":15.5,"activity":"DEPARTMENT-STORE-FOOD","reference_devices":[],"address":{"street":"Hume Street","zip":"DD11 1UH","city":"Arbroath","country":{"name":"United Kingdom","code":"GB"},"coordinates":{"latitude":56.5614,"longitude":-2.587146}},"optimisedDate":"2018-10-17T00%3A00%3A00"},{"id":78650,"name":"Armthorpe","key":"L-CR7QNP","type":"LEAF","parent":{"id":78001},"area":679.96,"summer_temp":15.5,"winter_temp":15.5,"activity":"DEPARTMENT-STORE-FOOD","reference_devices":[],"address":{"street":"Church Street","zip":"DN3 3AE","city":"Armthorpe","country":{"name":"United Kingdom","code":"GB"},"coordinates":{"latitude":53.535625,"longitude":-1.056638}}}]